[
  {"id": "bagalkot", "name": "Bagalkot", "lat": 16.1692, "lng": 75.6979},
  {"id": "ballari", "name": "Ballari", "lat": 15.1394, "lng": 76.9214},
  {"id": "belagavi", "name": "Belagavi", "lat": 15.8497, "lng": 74.4977},
  {"id": "bengaluru_rural", "name": "Bengaluru Rural", "lat": 13.2257, "lng": 77.5673},
  {"id": "bengaluru_urban", "name": "Bengaluru Urban", "lat": 12.9716, "lng": 77.5946},
  {"id": "bidar", "name": "Bidar", "lat": 17.9104, "lng": 77.5199},
  {"id": "chamarajanagar", "name": "Chamarajanagar", "lat": 11.9261, "lng": 76.9437},
  {"id": "chikkaballapur", "name": "Chikkaballapur", "lat": 13.4355, "lng": 77.7315},
  {"id": "chikkamagaluru", "name": "Chikkamagaluru", "lat": 13.3161, "lng": 75.7720},
  {"id": "chitradurga", "name": "Chitradurga", "lat": 14.2251, "lng": 76.3980},
  {"id": "dakshina_kannada", "name": "Dakshina Kannada", "lat": 12.8438, "lng": 75.2479},
  {"id": "davanagere", "name": "Davanagere", "lat": 14.4644, "lng": 75.9218},
  {"id": "dharwad", "name": "Dharwad", "lat": 15.4589, "lng": 75.0078},
  {"id": "gadag", "name": "Gadag", "lat": 15.4166, "lng": 75.6272},
  {"id": "hassan", "name": "Hassan", "lat": 13.0033, "lng": 76.1004},
  {"id": "haveri", "name": "Haveri", "lat": 14.7957, "lng": 75.3996},
  {"id": "kalaburagi", "name": "Kalaburagi", "lat": 17.3297, "lng": 76.8243},
  {"id": "kodagu", "name": "Kodagu", "lat": 12.3375, "lng": 75.8069},
  {"id": "kolar", "name": "Kolar", "lat": 13.1360, "lng": 78.1294},
  {"id": "koppal", "name": "Koppal", "lat": 15.3508, "lng": 76.1547},
  {"id": "mandya", "name": "Mandya", "lat": 12.5218, "lng": 76.8951},
  {"id": "mysuru", "name": "Mysuru", "lat": 12.2958, "lng": 76.6394},
  {"id": "raichur", "name": "Raichur", "lat": 16.2120, "lng": 77.3439},
  {"id": "ramanagara", "name": "Ramanagara", "lat": 12.7157, "lng": 77.2819},
  {"id": "shivamogga", "name": "Shivamogga", "lat": 13.9299, "lng": 75.5681},
  {"id": "tumakuru", "name": "Tumakuru", "lat": 13.3379, "lng": 77.1173},
  {"id": "udupi", "name": "Udupi", "lat": 13.3409, "lng": 74.7421},
  {"id": "uttara_kannada", "name": "Uttara Kannada", "lat": 14.7937, "lng": 74.6940},
  {"id": "vijayapura", "name": "Vijayapura", "lat": 16.8302, "lng": 75.7100},
  {"id": "yadgir", "name": "Yadgir", "lat": 16.7710, "lng": 77.1383},
  {"id": "vijayanagara", "name": "Vijayanagara", "lat": 15.2689, "lng": 76.3909}
]
